{
    "meetups": [
        {
            "name": "Portugal Norte - Bitcoin Meetup",
            "location": {
                "place": "French Fries Factory",
                "address": "Rua do Bonjardim 302",
                "city": "Porto"
            },
            "time": "2024-05-25 18:00:00Z",
            "img": "images/meetups/meetupNorte.jpeg",
            "description": "Toxic Maxis Only - No Shitcoins Allowed; Lightning Payments Accepted",
            "link": "https://t.me/btcnortept"
        },
        {
            "name": "Portugal Oeste - Bitcoin Meetup",
            "location": {
                "place": "Pizzaria Papadoc",
                "address": "R. Ilha do Corvo 1",
                "city": "Marinha Grande"
            },
            "time": "2024-05-22T19:30:00Z",
            "img": "images/meetups/meetupOeste.jpeg",
            "description": "Traz um amigo - shitcoins not welcome",
            "link": "https://t.me/OesteBitcoinMeetUp"
        },
        {
            "name": "Lisbon Bitcoin Maxis",
            "location": {
                "place": "Carnalentejana",
                "address": "Campo Pequeno D",
                "city": "Lisboa"
            },
            "time": "2024-05-27T17:00:00Z",
            "img": "images/meetups/meetupLisboa.jpeg",
            "description": "The Genesis Book, by Aaron Van Wirdum",
            "link": "https://www.meetup.com/lisbon-bitcoin-maximalists/"
        },
        {
            "name": "Bitcoin Tribe Algarve",
            "location": {
                "place": "Default Place",
                "address": "Somewhere in Algarve",
                "city": "Faro"
            },
            "time": "2024-05-27T17:00:00Z",
            "img": "images/meetups/meetupAlgarve.jpeg",
            "description": "No shitcoining - Ln Accepted",
            "link": "https://t.me/BitcoinAlgarve"
        },
        {
            "name": "FREE Madeira Bitcoin Meetup",
            "location": {
                "place": "Pizzaria Papadoc",
                "address": "CCIF",
                "city": "Funchal"
            },
            "time": "2024-05-30T17:00:00Z",
            "img": "images/meetups/meetupMadeira.jpeg",
            "description": "No shitcoining - Ln Accepted",
            "link": "https://t.me/freemadeira"
        }
    ]
}